id,name.local,name.en,name.slug,code.id,geo.lat,geo.lon
UG10040101,Bugaya,Bugaya,bugaya,UG10040101,-0.697,33.324
UG10040102,Busamuzi,Busamuzi,busamuzi,UG10040102,0.291,33.256
UG10040103,Buvuma Town Council,Buvuma Town Council,buvuma-town-council,UG10040103,0.183,33.239
UG10040104,Buwooya,Buwooya,buwooya,UG10040104,0.277,33.365
UG10040105,Bweema,Bweema,bweema,UG10040105,0.143,33.145
UG10040106,Lubya,Lubya,lubya,UG10040106,-0.386,33.442
UG10040107,Lwajje,Lwajje,lwajje,UG10040107,-0.439,32.952
UG10040108,Lyabaana,Lyabaana,lyabaana,UG10040108,-0.698,33.157
UG10040109,Nairambi,Nairambi,nairambi,UG10040109,0.161,33.306
