id,name.local,name.en,name.slug,code.id,geo.lat,geo.lon
UG20370101,Butebo,Butebo,butebo,UG20370101,1.226,33.91
UG20370102,Butebo Town Council,Butebo Town Council,butebo-town-council,UG20370102,1.202,33.896
UG20370103,Kabwangasi,Kabwangasi,kabwangasi,UG20370103,1.134,34.099
UG20370104,Kakoro,Kakoro,kakoro,UG20370104,1.178,34.041
UG20370105,Kanginima,Kanginima,kanginima,UG20370105,1.191,33.993
UG20370106,Petete,Petete,petete,UG20370106,1.174,33.911
