id,name.local,name.en,name.slug,code.id,geo.lat,geo.lon
UG10210201,Koome Island,Koome Island,koome-island,UG10210201,-0.047,32.73
UG10210202,Kyampisi,Kyampisi,kyampisi,UG10210202,0.503,32.706
UG10210203,Mpatta,Mpatta,mpatta,UG10210203,0.208,32.692
UG10210204,Mpunge,Mpunge,mpunge,UG10210204,0.116,32.724
UG10210205,Nakisunga,Nakisunga,nakisunga,UG10210205,0.283,32.793
UG10210206,Nama,Nama,nama,UG10210206,0.408,32.792
UG10210207,Ntenjeru,Ntenjeru,ntenjeru,UG10210207,0.192,32.812
