id,name.local,name.en,name.slug,code.id,geo.lat,geo.lon
UG30830101,Adekokwok,Adekokwok,adekokwok,UG30830101,2.218,32.948
UG30830102,Agali,Agali,agali,UG30830102,2.124,33.073
UG30830103,Agweng,Agweng,agweng,UG30830103,2.516,32.937
UG30830104,Amach,Amach,amach,UG30830104,2.093,32.968
UG30830105,Aromo,Aromo,aromo,UG30830105,2.574,32.868
UG30830106,Barr,Barr,barr,UG30830106,2.242,33.044
UG30830107,Lira,Lira,lira,UG30830107,2.266,32.838
UG30830108,Ngetta,Ngetta,ngetta,UG30830108,2.312,32.93
UG30830109,Ogur,Ogur,ogur,UG30830109,2.408,32.953
