id,name.local,name.en,name.slug,code.id,geo.lat,geo.lon
UG10190101,Buwama,Buwama,buwama,UG10190101,-0.003,32.102
UG10190102,Kammengo,Kammengo,kammengo,UG10190102,0.115,32.232
UG10190103,Kiringente,Kiringente,kiringente,UG10190103,0.261,32.383
UG10190104,Kituntu,Kituntu,kituntu,UG10190104,0.039,31.958
UG10190105,Mpigi Town Council,Mpigi Town Council,mpigi-town-council,UG10190105,0.192,32.321
UG10190106,Muduuma,Muduuma,muduuma,UG10190106,0.341,32.337
UG10190107,Nkozi,Nkozi,nkozi,UG10190107,-0.053,31.984
