id,name.local,name.en,name.slug,code.id,geo.lat,geo.lon
UG30700101,Amuru,Amuru,amuru,UG30700101,2.828,31.539
UG30700102,Amuru Town Council,Amuru Town Council,amuru-town-council,UG30700102,2.82,31.873
UG30700103,Attiak,Attiak,attiak,UG30700103,3.305,32.204
UG30700104,Lamogi,Lamogi,lamogi,UG30700104,2.861,32.106
UG30700105,Pabo,Pabo,pabo,UG30700105,3.123,32.042
