id,name.local,name.en,name.slug,code.id,geo.lat,geo.lon
UG20400301,Budondo,Budondo,budondo,UG20400301,0.528,33.153
UG20400302,Butagaya,Butagaya,butagaya,UG20400302,0.611,33.103
UG20400303,Buwenge,Buwenge,buwenge,UG20400303,0.626,33.176
UG20400304,Buwenge Town Council,Buwenge Town Council,buwenge-town-council,UG20400304,0.651,33.17
UG20400305,Buyengo,Buyengo,buyengo,UG20400305,0.633,33.251
