id,name.local,name.en,name.slug,code.id,geo.lat,geo.lon
UG10100201,Busaana,Busaana,busaana,UG10100201,0.788,32.989
UG10100202,Kangulumira,Kangulumira,kangulumira,UG10100202,0.573,33.026
UG10100203,Kayunga,Kayunga,kayunga,UG10100203,0.722,32.943
UG10100204,Kayunga Town Council,Kayunga Town Council,kayunga-town-council,UG10100204,0.706,32.896
UG10100205,Nazigo,Nazigo,nazigo,UG10100205,0.676,33.023
