id,name.local,name.en,name.slug,code.id,geo.lat,geo.lon
UG10160101,Kaliiro,Kaliiro,kaliiro,UG10160101,-0.272,31.182
UG10160102,Kasagama,Kasagama,kasagama,UG10160102,-0.115,31.161
UG10160103,Kinuuka,Kinuuka,kinuuka,UG10160103,-0.226,31.116
UG10160104,Lyakajura,Lyakajura,lyakajura,UG10160104,-0.171,31.27
UG10160105,Lyantonde,Lyantonde,lyantonde,UG10160105,-0.403,31.133
UG10160106,Lyantonde Town Council,Lyantonde Town Council,lyantonde-town-council,UG10160106,-0.408,31.156
UG10160107,Mpumudde,Mpumudde,mpumudde,UG10160107,-0.273,31.249
