id,name.local,name.en,name.slug,code.id,geo.lat,geo.lon
UG41230101,Hapuuyo,Hapuuyo,hapuuyo,UG41230101,0.59,31.1
UG41230102,Kabweza Kyegegwa,Kabweza Kyegegwa,kabweza-kyegegwa,UG41230102,0.423,31.069
UG41230103,Kakabara,Kakabara,kakabara,UG41230103,0.558,30.952
UG41230104,Kasule,Kasule,kasule,UG41230104,0.574,31.209
UG41230105,Kigambo,Kigambo,kigambo,UG41230105,0.682,30.959
UG41230106,Kyegegwa Town Council,Kyegegwa Town Council,kyegegwa-town-council,UG41230106,0.519,31.061
UG41230107,Mpara,Mpara,mpara,UG41230107,0.397,31.003
UG41230108,Ruyonza,Ruyonza,ruyonza,UG41230108,0.277,30.983
UG41230109,Rwentuha,Rwentuha,rwentuha,UG41230109,0.34,30.882
