id,name.local,name.en,name.slug,code.id,geo.lat,geo.lon
UG20490101,Atutur,Atutur,atutur,UG20490101,1.407,33.993
UG20490102,Kanyum,Kanyum,kanyum,UG20490102,1.358,33.928
UG20490103,Kumi,Kumi,kumi,UG20490103,1.579,33.918
UG20490104,Mukongoro,Mukongoro,mukongoro,UG20490104,1.315,33.879
UG20490105,Nyero,Nyero,nyero,UG20490105,1.438,33.854
UG20490106,Ongino,Ongino,ongino,UG20490106,1.55,34.023
