id,name.local,name.en,name.slug,code.id,geo.lat,geo.lon
UG20280101,Budaka,Budaka,budaka,UG20280101,1.008,33.988
UG20280102,Budaka Town Council,Budaka Town Council,budaka-town-council,UG20280102,1.016,33.937
UG20280103,Kaderuna,Kaderuna,kaderuna,UG20280103,1.077,33.938
UG20280104,Kakule,Kakule,kakule,UG20280104,1.065,34.003
UG20280105,Lyama,Lyama,lyama,UG20280105,0.968,33.946
UG20280106,Naboa,Naboa,naboa,UG20280106,1.03,34.022
UG20280107,Nansanga,Nansanga,nansanga,UG20280107,0.976,33.889
