id,name.local,name.en,name.slug,code.id,geo.lat,geo.lon
UG30760114,Kapedo,Kapedo,kapedo,UG30760114,3.672,33.903
UG30760115,Karenga Town Council,Karenga Town Council,karenga-town-council,UG30760115,3.587,33.765
UG30760116,Kawalakol,Kawalakol,kawalakol,UG30760116,3.895,33.821
UG30760117,Lobalangit,Lobalangit,lobalangit,UG30760117,3.436,33.755
UG30760118,Lokori,Lokori,lokori,UG30760118,3.738,33.641
UG30760119,Napore Karenga,Napore Karenga,napore-karenga,UG30760119,3.653,33.756
UG30760120,Sangar,Sangar,sangar,UG30760120,3.561,33.911
