id,name.local,name.en,name.slug,code.id,geo.lat,geo.lon
UG10010101,Buikwe,Buikwe,buikwe,UG10010101,0.294,33.003
UG10010102,Buikwe Town Council,Buikwe Town Council,buikwe-town-council,UG10010102,0.336,33.04
UG10010103,Najja,Najja,najja,UG10010103,0.264,33.119
UG10010104,Ngogwe,Ngogwe,ngogwe,UG10010104,0.211,32.999
UG10010105,Nkokonjeru Town Council,Nkokonjeru Town Council,nkokonjeru-town-council,UG10010105,0.242,32.92
UG10010106,Ssi-Bukunja,Ssi-Bukunja,ssi-bukunja,UG10010106,0.129,32.968
