id,name.local,name.en,name.slug,code.id,geo.lat,geo.lon
UG10170101,Bukakata,Bukakata,bukakata,UG10170101,-0.281,31.956
UG10170102,Buwunga,Buwunga,buwunga,UG10170102,-0.414,31.852
UG10170103,Kabonera,Kabonera,kabonera,UG10170103,-0.405,31.647
UG10170104,Kyanamukaaka,Kyanamukaaka,kyanamukaaka,UG10170104,-0.522,31.84
UG10170105,Kyesiiga,Kyesiiga,kyesiiga,UG10170105,-0.676,31.858
UG10170106,Mukungwe,Mukungwe,mukungwe,UG10170106,-0.297,31.784
