id,name.local,name.en,name.slug,code.id,geo.lat,geo.lon
UG20620101,Arapai,Arapai,arapai,UG20620101,1.841,33.649
UG20620102,Asuret,Asuret,asuret,UG20620102,1.619,33.603
UG20620103,Gweri,Gweri,gweri,UG20620103,1.71,33.75
UG20620104,Kamuda,Kamuda,kamuda,UG20620104,1.721,33.502
UG20620105,Katine,Katine,katine,UG20620105,1.849,33.52
UG20620106,Soroti,Soroti,soroti,UG20620106,1.697,33.657
UG20620107,Tubur,Tubur,tubur,UG20620107,1.956,33.513
