id,name.local,name.en,name.slug,code.id,geo.lat,geo.lon
UG41290301,Itojo,Itojo,itojo,UG41290301,-0.774,30.292
UG41290302,Kafunjo-Mirama Town Council,Kafunjo-Mirama Town Council,kafunjo-mirama-town-council,UG41290302,-1.03,30.406
UG41290303,Kitwe Town Council,Kitwe Town Council,kitwe-town-council,UG41290303,-0.991,30.465
UG41290304,Ntungamo,Ntungamo,ntungamo,UG41290304,-0.859,30.23
UG41290305,Nyakyera,Nyakyera,nyakyera,UG41290305,-0.884,30.415
UG41290306,Ruhaama,Ruhaama,ruhaama,UG41290306,-0.967,30.366
UG41290307,Rukoni East,Rukoni East,rukoni-east,UG41290307,-0.899,30.547
UG41290308,Rukoni West,Rukoni West,rukoni-west,UG41290308,-0.926,30.475
UG41290309,Rweikiniro,Rweikiniro,rweikiniro,UG41290309,-0.993,30.273
