id,name.local,name.en,name.slug,code.id,geo.lat,geo.lon
UG41080101,Endiinzi,Endiinzi,endiinzi,UG41080101,-0.887,31.104
UG41080102,Endiinzi Town Council,Endiinzi Town Council,endiinzi-town-council,UG41080102,-0.88,31.156
UG41080103,Kakamba,Kakamba,kakamba,UG41080103,-0.964,30.86
UG41080104,Kashumba,Kashumba,kashumba,UG41080104,-0.876,30.939
UG41080105,Mbaare,Mbaare,mbaare,UG41080105,-0.898,31.027
UG41080106,Ngarama,Ngarama,ngarama,UG41080106,-0.898,30.849
UG41080107,Rugaaga,Rugaaga,rugaaga,UG41080107,-0.789,31.035
UG41080108,Rushasha,Rushasha,rushasha,UG41080108,-0.732,31.008
