id,name.local,name.en,name.slug,code.id,geo.lat,geo.lon
UG30940101,Bobi,Bobi,bobi,UG30940101,2.545,32.334
UG30940102,Koro,Koro,koro,UG30940102,2.707,32.356
UG30940103,Lakwana,Lakwana,lakwana,UG30940103,2.64,32.39
UG30940104,Lalogi,Lalogi,lalogi,UG30940104,2.706,32.507
UG30940105,Odek,Odek,odek,UG30940105,2.715,32.676
UG30940106,Omoro Town Council,Omoro Town Council,omoro-town-council,UG30940106,2.629,32.503
UG30940107,Ongako,Ongako,ongako,UG30940107,2.693,32.213
